{
  "gardens": [
    {
      "name": "나폴리농원",
      "address": "경상남도 통영시 산양읍 미륵산길 152",
      "phone": "010-3117-9030",
      "management": "나폴리농원",
      "latitude": 34.8022,
      "longitude": 128.4242,
      "themes": [
        "등산길",
        "자연적",
        "휴양지",
        "시원"
      ]
    },
    {
      "name": "사천식물랜드",
      "address": "경상남도 사천시 용현면 덕곡리 82-4 일원",
      "phone": "010-4590-8718",
      "management": "사천식물랜드",
      "latitude": 34.9954,
      "longitude": 128.0653,
      "themes": [
        "꽃길",
        "관광지",
        "광활"
      ]
    },
    {
      "name": "해솔찬정원",
      "address": "경상남도 통영시 도산면 저산리 572-1",
      "phone": "055-643-0564",
      "management": "해솔찬정원",
      "latitude": 34.8992,
      "longitude": 128.3076,
      "themes": [
        "체험학습",
        "초원",
        "식물원"
      ]
    },
    {
      "name": "통영동백커피식물원",
      "address": "경상남도 통영시 도산면 원산리 920 일원",
      "phone": "010-3557-9634",
      "management": "통영동백커피식물원",
      "latitude": 34.9358,
      "longitude": 128.3565,
      "themes": [
        "식물원",
        "과수원",
        "촉촉"
      ]
    },
    {
      "name": "물빛소리정원",
      "address": "경상남도 통영시 도산면 수월리 655-3",
      "phone": "010-3588-6453",
      "management": "물빛소리정원",
      "latitude": 34.9358,
      "longitude": 128.3565,
      "themes": [
        "꽃길",
        "관광지",
        "광활"
      ]
    },
    {
      "name": "춘화의 정원",
      "address": "경상남도 통영시 도산면 도산일주로 56",
      "phone": "010-2596-6344",
      "management": "춘화의 정원",
      "latitude": 34.9027,
      "longitude": 128.3591,
      "themes": [
        "체험학습",
        "산책로"
      ]
    },
    {
      "name": "농부가그린정원",
      "address": "경상남도 김해시 진영읍 좌곤리 765-1",
      "phone": "010-3832-8430",
      "management": "농부가그린정원",
      "latitude": 35.3086,
      "longitude": 128.7089,
      "themes": [
        "식물원"
      ]
    },
    {
      "name": "엄마의정원",
      "address": "경상남도 밀양시 하남읍 남전7길 41-19",
      "phone": "010-3884-1100",
      "management": "엄마의정원",
      "latitude": 35.4071,
      "longitude": 128.7317,
      "themes": [
        "광활",
        "식물원"
      ]
    },
    {
      "name": "녹색교육정원",
      "address": "경상남도 양산시 동면 개곡로77번길",
      "phone": "010-5574-7176",
      "management": "녹색교육정원",
      "latitude": 35.3508,
      "longitude": 129.1226,
      "themes": [
        "체험학습",
        "빈티지",
        "자연적"
      ]
    },
    {
      "name": "옥동힐링가든",
      "address": "경상남도 거제시 둔덕면 청마로 665-13",
      "phone": "055-636-8988",
      "management": "옥동힐링가든",
      "latitude": 34.8703,
      "longitude": 128.5461,
      "themes": [
        "공원",
        "체험학습",
        "폭포",
        "추억"
      ]
    },
    {
      "name": "새미골정원",
      "address": "경상남도 양산시 동면 개곡리 564",
      "phone": "010-3885-1567",
      "management": "새미골정원",
      "latitude": 35.3542,
      "longitude": 129.1178,
      "themes": [
        "공원",
        "산",
        "시원"
      ]
    },
    {
      "name": "느티나무의 사랑",
      "address": "경상남도 양산시 동면 여락리 103 일원",
      "phone": "055-912-5551",
      "management": "느티나무의 사랑",
      "latitude": 35.3075,
      "longitude": 129.1066,
      "themes": [
        "나무",
        "광활",
        "공원"
      ]
    },
    {
      "name": "만년교정원",
      "address": "경상남도 창녕군 영산면 원다리길 17",
      "phone": "010-9431-2277",
      "management": "만년교정원",
      "latitude": 35.453,
      "longitude": 128.5296,
      "themes": [
        "농촌",
        "대형",
        "자연적"
      ]
    },
    {
      "name": "그레이스정원",
      "address": "경상남도 고성군 상리면 삼상로 1312-71",
      "phone": "055-673-1803",
      "management": "그레이스정원",
      "latitude": 34.975,
      "longitude": 128.168,
      "themes": [
        "자연적",
        "휴양지",
        "산림욕",
        "광활"
      ]
    },
    {
      "name": "만화방초정원",
      "address": "경상남도 고성군 거류면 은황길 82-91",
      "phone": "010-3870-1041",
      "management": "만화방초",
      "latitude": 34.9607,
      "longitude": 128.3854,
      "themes": [
        "산책로",
        "시원",
        "자연적"
      ]
    },
    {
      "name": "섬이정원",
      "address": "경상남도 남해군 남면 평산리 888-4번지",
      "phone": "010-2255-3577",
      "management": "섬이정원",
      "latitude": 34.7527,
      "longitude": 127.8608,
      "themes": [
        "나무",
        "산책로",
        "빈티지"
      ]
    },
    {
      "name": "화계리정원",
      "address": "경상남도 남해군 이동면 화계리 292-6",
      "phone": "010-4074-6444",
      "management": "화계리정원",
      "latitude": 34.7778,
      "longitude": 127.9401,
      "themes": [
        "친근",
        "빈티지",
        "나무"
      ]
    },
    {
      "name": "토피어리정원",
      "address": "경상남도 남해군 창선면 서부로 270-106",
      "phone": "010-2851-2978",
      "management": "토피어리정원",
      "latitude": 34.8455,
      "longitude": 127.9818,
      "themes": [
        "체험학습",
        "초원",
        "산",
        "꽃길",
        "동화"
      ]
    },
    {
      "name": "하미앙정원",
      "address": "경남 함양군 함양읍 삼봉로 442-14",
      "phone": "055-964-2500",
      "management": "하미앙정원",
      "latitude": 35.47,
      "longitude": 127.6718,
      "themes": [
        "공원",
        "휴식",
        "광활"
      ]
    },
    {
      "name": "이수미팜베리정원",
      "address": "경상남도 거창군 거창읍 가지리 산250-3",
      "phone": "055-945-1789",
      "management": "이수미팜베리정원",
      "latitude": 35.7104,
      "longitude": 127.8861,
      "themes": [
        "음식점",
        "산책로",
        "아늑"
      ]
    },
    {
      "name": "이한메미술관",
      "address": "경상남도 거창군 북상면 송계로 1243-15",
      "phone": "010-3227-0345",
      "management": "이한메미술관",
      "latitude": 35.8209,
      "longitude": 127.8111,
      "themes": [
        "공원",
        "광활",
        "시원"
      ]
    },
    {
      "name": "자연의소리정원",
      "address": "경상남도 거창군 가북면 용암리 산62 일원",
      "phone": "055-262-2729",
      "management": "자연의소리정원",
      "latitude": 35.8311,
      "longitude": 128.0783,
      "themes": [
        "산",
        "산책로",
        "연못",
        "예술"
      ]
    }
  ]
}